[{"latitude":59.913548,"longitude":10.736368,"name":"Ferner Jacobsen","address":"Stortingsgata 14","city":"Oslo","url":"http://www.nattogdag.no/byguide/butikker/561/ferner-jacobsen"},{"latitude":59.915833,"longitude":10.715661,"name":"Hassan og Den Dama","address":"Skovveien 4","city":"Oslo","url":"http://www.nattogdag.no/byguide/butikker/568/hassan-og-den-dama"},{"latitude":59.929745,"longitude":10.71048,"name":"Colosseum Kino","address":"Fridtjof Nansens vei 8","city":"Oslo","url":"http://www.nattogdag.no/byguide/kino/595/colosseum-kino"},{"latitude":59.913422,"longitude":10.732807,"name":"Klingenberg Kino","address":"Olav V\u0027s gate 4","city":"Oslo","url":"http://www.nattogdag.no/byguide/kino/604/klingenberg-kino"},{"latitude":59.916546,"longitude":10.750452,"name":"Arakataka","address":"Marioboes gate 7","city":"Oslo","url":"http://www.nattogdag.no/byguide/restauranter/616/arakataka"},{"latitude":59.909939,"longitude":10.72521,"name":"Beach Club","address":"Bryggetorget 14","city":"Oslo","url":"http://www.nattogdag.no/byguide/restauranter/618/beach-club"},{"latitude":59.912376,"longitude":10.764437,"name":"Olympen Mat\u0026Vinhus","address":"Grønlandsleiret 15","city":"Oslo","url":"http://www.nattogdag.no/byguide/restauranter/627/olympen-mat-vinhus"},{"latitude":59.927654,"longitude":10.759164,"name":"Sult","address":"Thorvald Meyers gate 26","city":"Oslo","url":"http://www.nattogdag.no/byguide/restauranter/635/sult"},{"latitude":59.924793,"longitude":10.759206,"name":"Aku Aku","address":"Thorvald Meyersgate 32","city":"Oslo","url":"http://www.nattogdag.no/byguide/utesteder/640/aku-aku"},{"latitude":59.920761,"longitude":10.753087,"name":"Blå","address":"Brenneriveien 9c","city":"Oslo","url":"http://www.nattogdag.no/byguide/utesteder/644/bla"},{"latitude":59.91312,"longitude":10.760227,"name":"Dattera til Hagen","address":"Grønland 10","city":"Oslo","url":"http://www.nattogdag.no/byguide/utesteder/649/dattera-til-hagen"},{"latitude":59.914684,"longitude":10.749614,"name":"Internasjonalen","address":"Youngstorget","city":"Oslo","url":"http://www.nattogdag.no/byguide/utesteder/651/internasjonalen"},{"latitude":59.911373,"longitude":10.761775,"name":"Oslo Mekaniske Verksted","address":"Tøyenbekken 34","city":"Oslo","url":"http://www.nattogdag.no/byguide/utesteder/659/oslo-mekaniske-verksted"},{"latitude":59.915817,"longitude":10.751048,"name":"Big Dipper","address":"Torggata 16","city":"Oslo","url":"http://www.nattogdag.no/byguide/konsertlokaler/670/big-dipper"},{"latitude":59.915825,"longitude":10.751034,"name":"Rockefeller","address":"Torggata 16","city":"Oslo","url":"http://www.nattogdag.no/byguide/konsertlokaler/686/rockefeller"},{"latitude":59.923759,"longitude":10.759235,"name":"Fru Hagen","address":"Thorvald Meyers gate 40A","city":"Oslo"},{"latitude":59.928543,"longitude":10.761604,"name":"Ringen kino","address":"Sannergata 6","city":"Oslo","url":"http://www.nattogdag.no/byguide/kino/855/ringen-kino"},{"latitude":59.931435,"longitude":10.713316,"name":"BokCaféen (Chateau Neuf)","address":"Slemdalsveien 7,0369","city":"Oslo"},{"latitude":59.931435,"longitude":10.713316,"name":"Chateau Neuf","address":"Slemdalsveien 7,0369","city":"Oslo"},{"latitude":59.940758,"longitude":10.721574,"name":"Blindern Fredrikke Bygget 3 stativ","address":"Problemveien 11,0313","city":"Oslo"},{"latitude":59.928715,"longitude":10.715864,"name":"Gamle Major","address":"Bogstadveien 66A,0366","city":"Oslo"},{"latitude":59.928619,"longitude":10.716177,"name":"Jacob Aal","address":"Bogstadveien 64A,0366","city":"Oslo"},{"latitude":59.928539,"longitude":10.716473,"name":"Sunpoint","address":"Bogstadveien 49,0366","city":"Oslo"},{"latitude":59.928032,"longitude":10.718248,"name":"Baker Hansen","address":"Bogstadveien 54,0366","city":"Oslo"},{"latitude":59.928726,"longitude":10.717528,"name":"Café M","address":"Valkyriegata 9,0366","city":"Oslo"},{"latitude":59.927151,"longitude":10.72008,"name":"Platekompaniet (bogstaveien)","address":"Bogstadveien 40A,0366","city":"Oslo"},{"latitude":59.926826,"longitude":10.720605,"name":"Spagetti","address":"Bogstadveien 31A,0366","city":"Oslo"},{"latitude":59.926289,"longitude":10.721477,"name":"The Broker","address":"Bogstadveien 27,0355","city":"Oslo"},{"latitude":59.925682,"longitude":10.722431,"name":"Carlings (bogstadveien) 2","address":"Bogstadveien 22,0355","city":"Oslo","url":"http://www.nattogdag.no/byguide/butikker/911/carlings-bogstadveien-2"},{"latitude":59.925133,"longitude":10.725497,"name":"San Leandro (Sporveisgata)","address":"Sporveisgata 35A,0354","city":"Oslo"},{"latitude":59.927353,"longitude":10.719765,"name":"Studion Alf","address":"Bogstadveien 41A,0366","city":"Oslo"},{"latitude":59.920746,"longitude":10.728536,"name":"Bjørungs","address":"Parkveien 25,0350","city":"Oslo"},{"latitude":59.92115,"longitude":10.727658,"name":"Horgans","address":"Hegdehaugsveien 24,0352","city":"Oslo"},{"latitude":59.921635,"longitude":10.730283,"name":"Lorrys","address":"Parkveien 12,0350","city":"Oslo"},{"latitude":59.928162,"longitude":10.718449,"name":"Kaffebrenneriet (Majorstuen)","address":"Valkyriegata 3,0366","city":"Oslo"},{"latitude":59.920586,"longitude":10.729332,"name":"rust","address":"Hegdehaugsveien 22B,0167","city":"Oslo"},{"latitude":59.920578,"longitude":10.729327,"name":"Plah","address":"Hegdehaugsveien 22","city":"Oslo","url":"http://www.nattogdag.no/byguide/restauranter/925/plah"},{"latitude":59.914974,"longitude":10.739912,"name":"Elsker","address":"Kristian IV\u0027s gate 7,0164","city":"Oslo"},{"latitude":59.915558,"longitude":10.737321,"name":"Tex Burger","address":"Universitetsgata 20,0162","city":"Oslo"},{"latitude":59.914398,"longitude":10.72768,"name":"Harry\u0027s","address":"Kronprinsens gate 5,0251","city":"Oslo"},{"latitude":59.913151,"longitude":10.741454,"name":"Akersgata 35,0158 Oslo","address":"Akersgata 35,0158","city":"Oslo"},{"latitude":59.914242,"longitude":10.742353,"name":"Utro Grensen","address":"Grensen 17,0159","city":"Oslo"},{"latitude":59.914288,"longitude":10.739346,"name":"Oslo Nye","address":"Rosenkrantz gate 10,0159","city":"Oslo"},{"latitude":59.914974,"longitude":10.743747,"name":"Stopp Pressen","address":"Akersgata 55,0180","city":"Oslo"},{"latitude":59.912067,"longitude":10.745711,"name":"Carlings Karl Johan","address":"Karl Johans gate 12A,0154","city":"Oslo","url":"http://www.nattogdag.no/byguide/butikker/938/carlings-karl-johan"},{"latitude":59.912918,"longitude":10.743488,"name":"Carlings Megastore","address":"Nedre slottsgate 12,0157","city":"Oslo","url":"http://www.nattogdag.no/byguide/butikker/939/carlings-megastore"},{"latitude":59.918941,"longitude":10.734588,"name":"Tullins","address":"Tullins gate 2,0166","city":"Oslo"},{"latitude":59.914478,"longitude":10.739555,"name":"Juristen","address":"Rosenkrantz gate 1,0159","city":"Oslo"},{"latitude":59.918728,"longitude":10.736827,"name":"Le Meo Sushi","address":"Pilestredet 31,0166","city":"Oslo"},{"latitude":59.920567,"longitude":10.733536,"name":"Curry House","address":"Hegdehaugsveien 2,0167","city":"Oslo"},{"latitude":59.921707,"longitude":10.732135,"name":"Bislet Kebab avd. Pilestredet","address":"Pilestredet 51 b,0350","city":"Oslo"},{"latitude":59.921612,"longitude":10.732156,"name":"Balkan","address":"Mauritz Hansens gate 5,0350","city":"Oslo"},{"latitude":59.923382,"longitude":10.731696,"name":"Sonans Privatgymnas","address":"Pilestredet 56,0167","city":"Oslo"},{"latitude":59.925961,"longitude":10.731069,"name":"Store Stå","address":"Thereses gate 51B,0354","city":"Oslo"},{"latitude":59.926319,"longitude":10.731262,"name":"Nero","address":"Thereses gate 47A,0354","city":"Oslo"},{"latitude":59.926437,"longitude":10.731094,"name":"kims","address":"Thereses gate 47A,0354","city":"Oslo"},{"latitude":59.927654,"longitude":10.731979,"name":"Godt Brød (Bislett)","address":"Thereses gate 33A,0354","city":"Oslo"},{"latitude":59.927765,"longitude":10.732195,"name":"Bislet Video","address":"Thereses gate 36,0168","city":"Oslo","url":"http://www.nattogdag.no/byguide/diverse/952/bislet-video"},{"latitude":59.948814,"longitude":10.766723,"name":"BI","address":"Nydalsveien 37, 0484","city":"Oslo"},{"latitude":59.948872,"longitude":10.76745,"name":"Godt Brød (Nydalen)","address":"Nydalsveien 33, 0484","city":"Oslo"},{"latitude":59.946896,"longitude":10.772535,"name":"Pizza og Kinaekspressen","address":"Vitaminveien 11b 0485","city":"Oslo"},{"latitude":59.939404,"longitude":10.773832,"name":"Åpent Bakeri","address":"Åsengata 42 - 0480","city":"Oslo"},{"latitude":59.936764,"longitude":10.766567,"name":"Never Mind Sushi","address":"Vogts gate 68,0477","city":"Oslo"},{"latitude":59.936813,"longitude":10.766614,"name":"Hair Craft","address":"Vogts gate 70A,0477","city":"Oslo"},{"latitude":59.935722,"longitude":10.765609,"name":"Kaffegutta","address":"Vogts gate 58,0477","city":"Oslo"},{"latitude":59.934792,"longitude":10.764731,"name":"Dolly Dimples","address":"Vogts gate 50A,0477","city":"Oslo"},{"latitude":59.934792,"longitude":10.764731,"name":"Kaffebrenneriet (Torshov)","address":"Vogts gate 50A,0477","city":"Oslo"},{"latitude":59.934189,"longitude":10.762151,"name":"Black Gold","address":"Torshovgata 1A,0476","city":"Oslo"},{"latitude":59.933285,"longitude":10.767394,"name":"Mr Pizza","address":"Torshovgata 15A","city":"Oslo"},{"latitude":59.933151,"longitude":10.768061,"name":"Trikkestallen","address":"Torshovgata 33","city":"Oslo"},{"latitude":59.92823,"longitude":10.753038,"name":"Ila SATS","address":"Waldemar thranes gate 73,0175","city":"Oslo"},{"latitude":59.927216,"longitude":10.761306,"name":"Scorpius","address":"Schleppegrells gate 16A,0556","city":"Oslo"},{"latitude":59.927074,"longitude":10.761138,"name":"Naboens Pub","address":"Toftes gate 30,0556","city":"Oslo"},{"latitude":59.925716,"longitude":10.76116,"name":"Kafe Tamara","address":"Toftes gate 50B,0556","city":"Oslo"},{"latitude":59.927071,"longitude":10.75916,"name":"La Famiglia","address":"Thorvald Meyers gate 25A,0555","city":"Oslo"},{"latitude":59.927292,"longitude":10.759159,"name":"Noahs Ark","address":"Thorvald Meyers gate 23A,0555","city":"Oslo"},{"latitude":59.925953,"longitude":10.759171,"name":"Ljudia","address":"Thorvald Meyers gate 33A,0555","city":"Oslo"},{"latitude":59.925953,"longitude":10.759171,"name":"Birken Lunch","address":"Thorvald meyers gate 33C,0555","city":"Oslo"},{"latitude":59.925953,"longitude":10.759171,"name":"Tea Lounge","address":"Thorvald Meyers gate 33b,0555","city":"Oslo"},{"latitude":59.925953,"longitude":10.759171,"name":"Café 33","address":"Thorvald meyers gate 33C,0555","city":"Oslo"},{"latitude":59.925251,"longitude":10.759194,"name":"Los Lobos","address":"Thorvald Meyers gate 30,0555","city":"Oslo"},{"latitude":59.925251,"longitude":10.759194,"name":"Bar Boca","address":"Thorvald Meyers gate 30,0555","city":"Oslo"},{"latitude":59.925228,"longitude":10.758981,"name":"McDonalds Grünerløkka","address":"Thorvald Meyers gate 35,0555","city":"Oslo"},{"latitude":59.924793,"longitude":10.759206,"name":"Kutt","address":"Thorvald Meyers gate 32A,0555","city":"Oslo"},{"latitude":59.923969,"longitude":10.759229,"name":"Godt Brød (Grünerløkka)","address":"Thorvald Meyers gate 49,0555","city":"Oslo"},{"latitude":59.92382,"longitude":10.759234,"name":"Carlings løkka","address":"Thorvald Meyers gate 51,0555","city":"Oslo","url":"http://www.nattogdag.no/byguide/butikker/990/carlings-lokka"},{"latitude":59.923523,"longitude":10.759243,"name":"Kaffebrenneriet løkka","address":"Thorvald Meyers gate 55,0555","city":"Oslo"},{"latitude":59.922279,"longitude":10.759263,"name":"Ryes","address":"Thorvald Meyers gate 59,0552","city":"Oslo"},{"latitude":59.920597,"longitude":10.760347,"name":"Deichmanske Bibliotek Schous Plass","address":"Schous Plass","city":"Oslo"},{"latitude":59.921909,"longitude":10.759269,"name":"Memphis","address":"Thorvald Meyers gate 63,0552","city":"Oslo"},{"latitude":59.922241,"longitude":10.759264,"name":"Kaos ","address":"Thorvald Meyers gate 56B,0552","city":"Oslo"},{"latitude":59.920242,"longitude":10.759315,"name":"Calexico","address":"Thorvald Meyers gate 70A,0552","city":"Oslo"},{"latitude":59.918262,"longitude":10.760527,"name":"Süd Øst","address":"Trondheimsveien 5A,0560","city":"Oslo"},{"latitude":59.921013,"longitude":10.757281,"name":"Fretex Grünerløkka","address":"Markveien 51,0554","city":"Oslo"},{"latitude":59.919147,"longitude":10.757656,"name":"Bugges","address":"Leirfallsgata 6,0550","city":"Oslo"},{"latitude":59.918663,"longitude":10.758513,"name":"Delicatessen","address":"Søndre gate 8,0550","city":"Oslo"},{"latitude":59.913193,"longitude":10.750611,"name":"Grim (storgata)","address":"Nygata 3,0155","city":"Oslo"},{"latitude":59.912987,"longitude":10.751916,"name":"Platekomp. Oslo City","address":"Stenersgata 1A,0050","city":"Oslo"},{"latitude":59.912987,"longitude":10.751916,"name":"Urban Oslo City","address":"Stenersgata 1A,0050","city":"Oslo"},{"latitude":59.910641,"longitude":10.750082,"name":"Platekomp. Byporten","address":"Jernbanetorget 6,0154","city":"Oslo"},{"latitude":59.913918,"longitude":10.755628,"name":"Café Con Bar","address":"Brugata 11,0186","city":"Oslo"},{"latitude":59.913719,"longitude":10.757407,"name":"Evita Espressobar Brugata","address":"Brugata 17A,0186","city":"Oslo","url":"http://www.nattogdag.no/byguide/restauranter/1020/evita-espressobar-brugata"},{"latitude":59.911617,"longitude":10.762895,"name":"Vognmand Nilsen","address":"Rubina Ranas gate 3,0190","city":"Oslo"},{"latitude":59.912384,"longitude":10.763817,"name":"Oscars Restaurant","address":"Mandalls gate 10,0190","city":"Oslo"},{"latitude":59.912781,"longitude":10.76392,"name":"Peppes Grønland","address":"Tøyengata 2,0190","city":"Oslo"},{"latitude":59.912903,"longitude":10.761495,"name":"Gloria Flames","address":"Grønland 18,0188","city":"Oslo","url":"http://www.nattogdag.no/byguide/restauranter/1029/gloria-flames"},{"latitude":59.913345,"longitude":10.75886,"name":"Stargate","address":"Grønland 2A,0188","city":"Oslo"},{"latitude":59.919769,"longitude":10.685173,"name":"Baker Hansen Karenslyst Allé","address":"Karenslyst Allé 16","city":"Oslo"},{"latitude":59.919964,"longitude":10.684582,"name":"Høyer Sjølyst","address":"Karenslyst Allé 18","city":"Oslo"},{"latitude":59.920055,"longitude":10.68227,"name":"Norsk Moteforum","address":"Sjølyst plass 3","city":"Oslo"},{"latitude":59.919964,"longitude":10.684582,"name":"Peppes Pizza Skøyen","address":"Karenslyst Allé 18","city":"Oslo"},{"latitude":59.920174,"longitude":10.684065,"name":"Auster Salonger Skøyen","address":"Karenslyst Allé 9","city":"Oslo"},{"latitude":59.919769,"longitude":10.685173,"name":"Sats Sjølyst","address":"Karenslyst Allé 16","city":"Oslo"},{"latitude":59.919765,"longitude":10.685188,"name":"Elixia Sjølyst","address":"Karenslyst Allé 7","city":"Oslo"},{"latitude":59.914677,"longitude":10.71847,"name":"Peppes Pizza Solli Plass","address":"Henrik Ibsens gate 100","city":"Oslo"},{"latitude":59.914974,"longitude":10.719924,"name":"Consenzo","address":"Henrik Ibsens gate 90","city":"Oslo"},{"latitude":59.914341,"longitude":10.739404,"name":"Smuget","address":"Rosenkrantzgate 22","city":"Oslo"},{"latitude":59.929859,"longitude":10.710636,"name":"Tempest","address":"Fridtjof Nansens plass 8","city":"Oslo"},{"latitude":59.914482,"longitude":10.732527,"name":"Saga Kino","address":"Stortingsgt. 28","city":"Oslo","url":"http://www.nattogdag.no/byguide/kino/1048/saga-kino"},{"latitude":59.913925,"longitude":10.734815,"name":"Bocata Stortingsgaten","address":"Stortingsgaten 22","city":"Oslo"},{"latitude":59.913841,"longitude":10.734686,"name":"Platekompaniet Stortingsgaten","address":"Stortingsgaten 22","city":"Oslo"},{"latitude":59.91309,"longitude":10.738252,"name":"Sole Service Stortingsgaten","address":"Stortingsgaten 6","city":"Oslo"},{"latitude":59.910286,"longitude":10.728554,"name":"Hannibals Hybel","address":"Stranden 1","city":"Oslo"},{"latitude":59.910286,"longitude":10.728554,"name":"Åpen bar","address":"Stranden 1","city":"Oslo"},{"latitude":59.910286,"longitude":10.728554,"name":"Bar1","address":"Stranden 1","city":"Oslo"},{"latitude":59.909721,"longitude":10.726667,"name":"Felix Kino","address":"Aker Brygge","city":"Oslo"},{"latitude":59.914227,"longitude":10.711975,"name":"Smoothie Xchange Frogner","address":"Niels Juels gate 31","city":"Oslo"},{"latitude":59.918766,"longitude":10.703106,"name":"Village Tandoori","address":"Bygdøy Allé 65","city":"Oslo"},{"latitude":59.915031,"longitude":10.716261,"name":"Hammertson","address":"Bygdøy Allé 5","city":"Oslo"},{"latitude":59.916241,"longitude":10.714007,"name":"Guess","address":"Niels Juels gate 38A","city":"Oslo"},{"latitude":59.914673,"longitude":10.732651,"name":"Kaffebrenneriet (national)","address":"Stortingsgata 28,0161","city":"Oslo"},{"latitude":59.914673,"longitude":10.732651,"name":"Olapalula","address":"Stortingsgata 28","city":"Oslo"},{"latitude":59.914082,"longitude":10.734268,"name":"Foxx","address":"Stortingsgata 24,0161","city":"Oslo"},{"latitude":59.914673,"longitude":10.732651,"name":"Blue Note","address":"Stortingsgata 28,0161","city":"Oslo"},{"latitude":59.91386,"longitude":10.732629,"name":"Nichol \u0026 son","address":"Olav Vs gate 1","city":"Oslo"},{"latitude":59.913925,"longitude":10.734815,"name":"Bocata","address":"Stortingsgata 22,0161","city":"Oslo"},{"latitude":59.913189,"longitude":10.737839,"name":"Body Shop","address":"Stortingsgata 8","city":"Oslo"},{"latitude":59.913189,"longitude":10.737839,"name":"Andy\u0027s Pub","address":"Stortingsgata 8,0161","city":"Oslo"},{"latitude":59.913822,"longitude":10.735198,"name":"Brasserie 45","address":"Stortingsgata 20,0161","city":"Oslo"},{"latitude":59.914082,"longitude":10.734268,"name":"Theatercafeen","address":"Stortingsgata 24,0161","city":"Oslo"},{"latitude":59.913822,"longitude":10.735198,"name":"Steakers","address":"Stortingsgata 20,0161","city":"Oslo"},{"latitude":59.914082,"longitude":10.734268,"name":"Annen Etage","address":"Stortingsgata 24,0161","city":"Oslo"},{"latitude":59.913822,"longitude":10.735198,"name":"Baker Hansen (Stortinget)","address":"Stortingsgata 20,0161","city":"Oslo"},{"latitude":59.910061,"longitude":10.728009,"name":"Carlings (aker brygge)","address":"Stranden 3,0250","city":"Oslo"},{"latitude":59.910664,"longitude":10.726838,"name":"Latter","address":"Holmens gate 1","city":"Oslo"},{"latitude":59.910458,"longitude":10.726372,"name":"Sinatra","address":"Holmens gate 4,0250","city":"Oslo"},{"latitude":59.910442,"longitude":10.726344,"name":"Beer Palace","address":"Holmens gate 3","city":"Oslo"},{"latitude":59.910255,"longitude":10.725929,"name":"Peppes Pizza (Aker Brygge)","address":"Holmens gate 5,0250","city":"Oslo"},{"latitude":59.910286,"longitude":10.728554,"name":"Dna","address":"Stranden 1,0250","city":"Oslo"},{"latitude":59.910061,"longitude":10.728009,"name":"Bianco","address":"Stranden 3,0250","city":"Oslo"},{"latitude":59.910061,"longitude":10.728009,"name":"Marlboro","address":"Stranden 3,0250","city":"Oslo"},{"latitude":59.909943,"longitude":10.725109,"name":"Eataly","address":"Bryggetorget 19,0250","city":"Oslo"},{"latitude":59.910061,"longitude":10.728009,"name":"Olivia","address":"Stranden 3,0250","city":"Oslo"},{"latitude":59.913513,"longitude":10.728246,"name":"Vika kino","address":"Ruseløkkveien 14","city":"Oslo","url":"http://www.nattogdag.no/byguide/kino/1104/vika-kino"},{"latitude":59.914387,"longitude":10.720232,"name":"Palace Grill","address":"Solligata 2,0254","city":"Oslo"},{"latitude":59.915787,"longitude":10.715688,"name":"Hassan \u0026 den dama","address":"Skovveien 4,0257","city":"Oslo"},{"latitude":59.918716,"longitude":10.703428,"name":"Clodion","address":"Bygdøy Allé 63A,0265","city":"Oslo"},{"latitude":59.918816,"longitude":10.706063,"name":"Cafe Elise","address":"Elisenbergveien 22,0265","city":"Oslo"},{"latitude":59.916481,"longitude":10.711389,"name":"Marimekko","address":"Bygdøy allé 18,0262","city":"Oslo"},{"latitude":59.916241,"longitude":10.714007,"name":"Beth\u0027s","address":"Niels Juels gate 38A,0257","city":"Oslo"},{"latitude":59.917824,"longitude":10.70684,"name":"Dugg","address":"Bygdøy Allé 51B,0265","city":"Oslo"},{"latitude":59.922161,"longitude":10.704949,"name":"United Bakeries (Frogner)","address":"Frognerveien 58,0266","city":"Oslo"},{"latitude":59.921127,"longitude":10.716416,"name":"Pizza Pancetta","address":"Eilert Sundts gate 13,0259","city":"Oslo"},{"latitude":59.918503,"longitude":10.704581,"name":"enoteca vinbar","address":"Bygdøy Allé 59C,0265","city":"Oslo"},{"latitude":59.922161,"longitude":10.704949,"name":"Deja vu","address":"Frognerveien 58,0266","city":"Oslo"},{"latitude":59.919769,"longitude":10.685173,"name":"Baker Hansen (Skøyen)","address":"Karenslyst Allé 16,0278","city":"Oslo"},{"latitude":59.919964,"longitude":10.684582,"name":"Høyer","address":"Karenslyst allé 18,0278","city":"Oslo"},{"latitude":59.920238,"longitude":10.683889,"name":"Kaffebrenneriet (skøyen)","address":"Karenslyst allé 22,0278","city":"Oslo"},{"latitude":59.920055,"longitude":10.68227,"name":"Moteforum","address":"Sjølyst Plass 3,0278","city":"Oslo"},{"latitude":59.919964,"longitude":10.684582,"name":"peppes pizza (skøyen)","address":"Karenslyst allé 18,0278","city":"Oslo"},{"latitude":59.920174,"longitude":10.684065,"name":"Auster","address":"Karenslyst allé 9,0278","city":"Oslo"},{"latitude":59.916527,"longitude":10.714293,"name":"Revolver Frisør","address":"Niels juels gate 40B","city":"Oslo"},{"latitude":59.917969,"longitude":10.71832,"name":"Best Western West Hotel","address":"Skovveien 15","city":"Oslo"},{"latitude":59.914227,"longitude":10.711975,"name":"Forest \u0026 Brown","address":"Niels juels gate 31","city":"Oslo"},{"latitude":59.916584,"longitude":10.716771,"name":"Pizza Da Mimo","address":"Behrens\u0027 gate 2","city":"Oslo"},{"latitude":59.919403,"longitude":10.709532,"name":"Bjørknes","address":"Løvenskioldsgt 1","city":"Oslo"},{"latitude":59.940159,"longitude":10.720148,"name":"A-10 kafeen","address":"Problemvn 7","city":"Oslo"},{"latitude":59.91803,"longitude":10.770416,"name":"Botanisk Hage, Tøyen","address":"Tøyen hovedgård Sars gate 1","city":"Oslo"},{"latitude":59.934132,"longitude":10.74337,"name":"Odontologikafeen ","address":"Geitmyrsvn. 71","city":"Oslo"},{"latitude":59.965744,"longitude":10.731395,"name":"Idrettshøgskolens kafe","address":"Sognsveien 220","city":"Oslo"},{"latitude":59.931778,"longitude":10.712764,"name":"Musikkhøgskolens kafe","address":"Slemdalsveien 11","city":"Oslo"},{"latitude":59.931385,"longitude":10.735816,"name":"Veterinærhøgskolens kafe","address":"Ullevålsveien 72","city":"Oslo"},{"latitude":59.925941,"longitude":10.74549,"name":"REMA 1000 Ila (St. haugen Senter)","address":"Waldemar Thranes gate 25 0171","city":"Oslo","url":"http://www.nattogdag.no/byguide/butikker/1327/rema-1000-ila-st-haugen-senter"},{"latitude":59.927711,"longitude":10.751784,"name":"REMA 1000 Darres Gate","address":"Darres Gate 2","city":"Oslo","url":"http://www.nattogdag.no/byguide/butikker/1328/rema-1000-darres-gate"},{"latitude":59.964497,"longitude":10.734166,"name":"Kiwi - Kringsjå","address":"Sognsveien 218","city":"Oslo","url":"http://www.nattogdag.no/byguide/butikker/1330/kiwi-kringsja"},{"latitude":59.921803,"longitude":10.705256,"name":"Kiwi - Frognerveien","address":"Frognerveien 54","city":"Oslo","url":"http://www.nattogdag.no/byguide/butikker/1331/kiwi-frognerveien"},{"latitude":59.914154,"longitude":10.719783,"name":"Kiwi - Solli Plass","address":"Solligata 1 0255","city":"Oslo","url":"http://www.nattogdag.no/byguide/butikker/1333/kiwi-solli-plass"},{"latitude":59.916492,"longitude":10.746624,"name":"Deichmanske hovedbibliotek","address":"Arne Garborgs plass 4","city":"Oslo"},{"latitude":59.938435,"longitude":10.768473,"name":"Ica Supermarked Sandaker","address":"Sandakerveien 59","city":"Oslo","url":"http://www.nattogdag.no/byguide/butikker/1372/ica-supermarked-sandaker"},{"latitude":59.913986,"longitude":10.74226,"name":"ICA Nær Grensen","address":"Akersgata 45 0158","city":"Oslo","url":"http://www.nattogdag.no/byguide/butikker/1373/ica-naer-grensen"},{"latitude":59.929626,"longitude":10.733096,"name":"Bunnpris Theresesgate","address":"Theresesgate 16 B","city":"Oslo","url":"http://www.nattogdag.no/byguide/butikker/1374/bunnpris-theresesgate"},{"latitude":59.923088,"longitude":10.771577,"name":"Kiwi - Trondheimsveien","address":"Trondheimsvn. 64","city":"Oslo","url":"http://www.nattogdag.no/byguide/butikker/1375/kiwi-trondheimsveien"},{"latitude":59.921734,"longitude":10.757188,"name":"Kiwi - Markveien","address":"Markvn. 35b","city":"Oslo","url":"http://www.nattogdag.no/byguide/butikker/1376/kiwi-markveien"},{"latitude":59.914616,"longitude":10.753061,"name":"Kiwi - Storgata","address":"Storgt. 33","city":"Oslo","url":"http://www.nattogdag.no/byguide/butikker/1378/kiwi-storgata"},{"latitude":59.901867,"longitude":10.770682,"name":"Bunnpris Konowsgt.","address":"Konowsgate 7","city":"Oslo","url":"http://www.nattogdag.no/byguide/butikker/1568/bunnpris-konowsgt-1"},{"latitude":59.918724,"longitude":10.736582,"name":"Bunnpris Pilestredet","address":"Pilestredet 31","city":"Oslo","url":"http://www.nattogdag.no/byguide/butikker/1569/bunnpris-pilestredet"},{"latitude":59.923134,"longitude":10.732845,"name":"Coop Mega Bislett","address":"Dalsbergstien 19, 0170","city":"Oslo","url":"http://www.nattogdag.no/byguide/butikker/1570/coop-mega-bislett"},{"latitude":59.928387,"longitude":10.716521,"name":"Coop Bogstadveien","address":"Bogstadveien 62, 0366","city":"Oslo","url":"http://www.nattogdag.no/byguide/butikker/1572/coop-bogstadveien"},{"latitude":59.91724,"longitude":10.709237,"name":"Gimle Kino","address":"Bygdøy Allé 39 0265","city":"Oslo","url":"http://www.nattogdag.no/byguide/butikker/1573/gimle-kino"},{"latitude":59.766479,"longitude":10.819231,"name":"Ski Kino","address":"Åsenvn. 2, 1401 Ski","city":"Oslo","url":"http://www.nattogdag.no/byguide/butikker/1574/ski-kino"},{"latitude":59.944241,"longitude":10.759147,"name":"Kiwi Bjølsen","address":"Bergensgata 28B 0468","city":"Oslo","url":"http://www.nattogdag.no/byguide/butikker/1575/kiwi-bjolsen"},{"latitude":59.923058,"longitude":10.739144,"name":"Kiwi Waldemar Thranes","address":"Waldemar Thranes gate 1 0171","city":"Oslo","url":"http://www.nattogdag.no/byguide/butikker/1576/kiwi-waldemar-thranes"},{"latitude":59.928211,"longitude":10.732074,"name":"Ica Supermarked Theresesgt","address":"Thereses gate 29 0354","city":"Oslo","url":"http://www.nattogdag.no/byguide/butikker/1577/ica-supermarked-theresesgt"},{"latitude":59.916336,"longitude":10.714897,"name":"Ica Supermarked Frogner","address":"Frognerveien 8 0257","city":"Oslo","url":"http://www.nattogdag.no/byguide/butikker/1578/ica-supermarked-frogner"},{"latitude":59.925228,"longitude":10.758981,"name":"Ica Supermarked Th. Meyersgt.","address":"Thorvald Meyers gate 35 0555","city":"Oslo","url":"http://www.nattogdag.no/byguide/butikker/1579/ica-supermarked-th-meyersgt"},{"latitude":59.928219,"longitude":10.750501,"name":"Ica Supermarked Kiellands Hus","address":"Waldemar Thranes gate 72 0175","city":"Oslo","url":"http://www.nattogdag.no/byguide/butikker/1580/ica-supermarked-kiellands-hus"},{"latitude":59.935696,"longitude":10.752876,"name":"Ica Supermarked Sagene","address":"Thurmanns gate 12a 0461","city":"Oslo","url":"http://www.nattogdag.no/byguide/butikker/1581/ica-supermarked-sagene"},{"latitude":59.911713,"longitude":10.743125,"name":"Ica Nær Steen \u0026 Strøm","address":"Kongens gate 23 0153","city":"Oslo","url":"http://www.nattogdag.no/byguide/butikker/1582/ica-naer-steen-strom"},{"latitude":59.923328,"longitude":10.772047,"name":"Rimi Carl Berner","address":"Trondheimsveien 72 0565","city":"Oslo","url":"http://www.nattogdag.no/byguide/butikker/1584/rimi-carl-berner"},{"latitude":59.949112,"longitude":10.766375,"name":"Rimi Nydalen","address":"Nydalsveien 33 0484","city":"Oslo","url":"http://www.nattogdag.no/byguide/butikker/1585/rimi-nydalen"},{"latitude":59.913548,"longitude":10.746721,"name":"Rema 1000 Torgata","address":"Torggata 2 0181","city":"Oslo","url":"http://www.nattogdag.no/byguide/butikker/1587/rema-1000-torgata"},{"latitude":59.926666,"longitude":10.776788,"name":"Meny Carl Berner","address":"Trondheimsveien 113 0565","city":"Oslo","url":"http://www.nattogdag.no/byguide/butikker/1590/meny-carl-berner"},{"latitude":59.928501,"longitude":10.761048,"name":"Meny Ringnes Park","address":"Sannergata 6 C 0555","city":"Oslo","url":"http://www.nattogdag.no/byguide/butikker/1591/meny-ringnes-park"},{"latitude":59.912518,"longitude":10.761912,"name":"Meny Grønland Torg","address":"Smalgangen 49 0188","city":"Oslo","url":"http://www.nattogdag.no/byguide/butikker/1592/meny-gronland-torg"},{"latitude":59.929577,"longitude":10.711649,"name":"Centra Colosseum","address":"Essendropsgt. 9","city":"Oslo","url":"http://www.nattogdag.no/byguide/butikker/1740/centra-colosseum"},{"latitude":59.91972,"longitude":10.759157,"name":"Bislet Kebab avd. Grünerløkka","address":"Thorvald Meyers gate 83","city":"Oslo","url":"http://www.nattogdag.no/byguide/butikker/1741/bislet-kebab-avd-gruenerlokka"},{"latitude":59.929783,"longitude":10.778217,"name":"Bislet Kebab avd. Carl Berner","address":"Trondheimsveien 139","city":"Oslo","url":"http://www.nattogdag.no/byguide/butikker/1742/bislet-kebab-avd-carl-berner"},{"latitude":59.9473,"longitude":10.773794,"name":"Ica Supermarked Storo","address":"Vitaminveien 7","city":"Oslo","url":"http://www.nattogdag.no/byguide/butikker/1743/ica-supermarked-storo"},{"latitude":59.912804,"longitude":10.741844,"name":"Egertorget","address":"Egertorget","city":"Oslo","url":"http://www.nattogdag.no/byguide/butikker/1744/egertorget"},{"latitude":59.913746,"longitude":10.740912,"name":"Brighton Pub","address":"Lille Grensen 7","city":"Oslo","url":"http://www.nattogdag.no/byguide/butikker/1745/brighton-pub"},{"latitude":59.940796,"longitude":10.729156,"name":"Kiwi Trikkesløyfa","address":"Vestgrensa 2","city":"Oslo","url":"http://www.nattogdag.no/byguide/butikker/1746/kiwi-trikkesloyfa"},{"latitude":59.923088,"longitude":10.771577,"name":"Rimi Trondheimsveien","address":"Trondheimsveien 64","city":"Oslo","url":"http://www.nattogdag.no/byguide/butikker/1747/rimi-trondheimsveien"},{"latitude":59.912395,"longitude":10.760334,"name":"Evita Espressobar Smalgangen","address":"Smalgangen 14","city":"Oslo","url":"http://www.nattogdag.no/byguide/butikker/1748/evita-espressobar-smalgangen"},{"latitude":59.911541,"longitude":10.763041,"name":"Evita espressobar Mandalls gate","address":"Mandallsgata 10","city":"Oslo","url":"http://www.nattogdag.no/byguide/butikker/1749/evita-espressobar-mandalls-gate"},{"latitude":59.919571,"longitude":10.735562,"name":"Høgskolen i Oslo, Økonomibygget","address":"Pilestredet 35","city":"Oslo","url":"http://www.nattogdag.no/byguide/butikker/1750/hogskolen-i-oslo-okonomibygget"},{"latitude":59.92115,"longitude":10.732808,"name":"Høgskolen i Oslo, v/buen","address":"Pilestredet 46","city":"Oslo"},{"latitude":59.924816,"longitude":10.75074,"name":"Arkitekt og Designhøgskolen i Oslo","address":"Maridalsveien 29","city":"Oslo","url":"http://www.nattogdag.no/byguide/butikker/1752/arkitekt-og-designhogskolen-i-oslo"},{"latitude":59.923527,"longitude":10.750865,"name":"Westerdals Høgskole","address":"Maridalsveien 17D","city":"Oslo","url":"http://www.nattogdag.no/byguide/butikker/1753/westerdals-hogskole"},{"latitude":59.911694,"longitude":10.746941,"name":"Burger King Karl Johan","address":"Karl Johans Gate 8","city":"Oslo","url":"http://www.nattogdag.no/byguide/butikker/1754/burger-king-karl-johan"},{"latitude":59.94875,"longitude":10.732052,"name":"Burger King Ullevål","address":"Sognsveien 75","city":"Oslo","url":"http://www.nattogdag.no/byguide/butikker/1755/burger-king-ulleval"},{"latitude":59.91087,"longitude":10.750735,"name":"Burger King Oslo S","address":"Jernbanetorget 1","city":"Oslo","url":"http://www.nattogdag.no/byguide/butikker/1756/burger-king-oslo-s"},{"latitude":59.929119,"longitude":10.717128,"name":"Burger King Majorstua","address":"Valkyriegata 11","city":"Oslo","url":"http://www.nattogdag.no/byguide/butikker/1757/burger-king-majorstua"},{"latitude":59.934795,"longitude":10.764482,"name":"Mustang Sally","address":"vogts gate 48","city":"Oslo","url":"http://www.nattogdag.no/byguide/butikker/1758/mustang-sally"},{"latitude":59.93391,"longitude":10.761284,"name":"Myrens Sportssenter","address":"Sandakerveien 24","city":"Oslo","url":"http://www.nattogdag.no/byguide/butikker/1759/myrens-sportssenter"},{"latitude":59.929901,"longitude":10.713329,"name":"Saks Frisør, Majorstua","address":"Sørkedalsveien 1","city":"Oslo","url":"http://www.nattogdag.no/byguide/butikker/1760/saks-frisor-majorstua"},{"latitude":59.908348,"longitude":10.778795,"name":"Rema 1000 Jordal","address":"Jordalgata 2","city":"Oslo","url":"http://www.nattogdag.no/byguide/butikker/1761/rema-1000-jordal"},{"latitude":59.907486,"longitude":10.780842,"name":"Rimi Jordal","address":"St. Halvards gate 67","city":"Oslo","url":"http://www.nattogdag.no/byguide/butikker/1762/rimi-jordal"},{"latitude":59.918797,"longitude":10.75923,"name":"Rockmerch Th.Meyersgt.","address":"Thorvald Meyers Gate 89","city":"Oslo","url":"http://www.nattogdag.no/byguide/butikker/1763/rockmerch-th-meyersgt"},{"latitude":59.924332,"longitude":10.725152,"name":"Urban Bogstadveien","address":"Bogstadveien 3","city":"Oslo","url":"http://www.nattogdag.no/byguide/butikker/1764/urban-bogstadveien"},{"latitude":59.913609,"longitude":10.732174,"name":"Burger King Klingenberg","address":"Klingenberggata 5","city":"Oslo","url":"http://www.nattogdag.no/byguide/butikker/1765/burger-king-klingenberg"},{"latitude":59.911678,"longitude":10.747856,"name":"Arkaden Karl Johan","address":"Karl Johans gate 7","city":"Oslo","url":"http://www.nattogdag.no/byguide/butikker/1766/arkaden-karl-johan"},{"latitude":59.912361,"longitude":10.753212,"name":"Session Oslo City","address":"Stenersgata 1E","city":"Oslo","url":"http://www.nattogdag.no/byguide/butikker/1767/session-oslo-city"},{"latitude":59.911804,"longitude":10.743352,"name":"Emil \u0026 Samuel (Steen\u0026Strøm)","address":"Kongensgate 23","city":"Oslo","url":"http://www.nattogdag.no/byguide/butikker/1768/emil-samuel-steen-strom"},{"latitude":59.922932,"longitude":10.73184,"name":"Kebab Company","address":"Pilestredet 55","city":"Oslo","url":"http://www.nattogdag.no/byguide/butikker/1769/kebab-company"},{"latitude":59.91087,"longitude":10.750735,"name":"McDonalds Østbanehallen","address":"Jernbanetorget 1","city":"Oslo","url":"http://www.nattogdag.no/byguide/butikker/1770/mcdonalds-ostbanehallen"},{"latitude":59.914371,"longitude":10.730171,"name":"Nationaltheatret Stasjon","address":"Ruseløkkveien 1","city":"Oslo","url":"http://www.nattogdag.no/byguide/butikker/1771/nationaltheatret-stasjon"},{"latitude":59.913506,"longitude":10.741847,"name":"Råkk\u0026Rålls","address":"Akersgata 39","city":"Oslo","url":"http://www.nattogdag.no/byguide/butikker/1772/rakk-ralls-1"},{"latitude":59.91177,"longitude":10.751551,"name":"Urban Byporten","address":"Jernbanetorget 6","city":"Oslo","url":"http://www.nattogdag.no/byguide/butikker/1773/urban-byporten-1"},{"latitude":59.923347,"longitude":10.740593,"name":"Showtime St.hanshaugen","address":"Bjerregaards gate 2","city":"Oslo","url":"http://www.nattogdag.no/byguide/butikker/1774/showtime-st-hanshaugen"},{"latitude":59.938446,"longitude":10.721343,"name":"Blindern Georg Bygget","address":"Moltke Moes vei 39","city":"Oslo"},{"latitude":59.928215,"longitude":10.732076,"name":"Ica Theresesgate","address":"Thereses gate 29","city":"Oslo"},{"latitude":59.938534,"longitude":10.719235,"name":"Blindern, Helga Engs Hus","address":"Sem Sælands vei 7","city":"Oslo"},{"latitude":59.941128,"longitude":10.725879,"name":"Blindern, Eiliert Sundts Hus, 2 stativ","address":"Moltke Moes vei 31","city":"Oslo"},{"latitude":59.924397,"longitude":10.724427,"name":"Oslo Mikrobryggeri","address":"Bogstadveien 6","city":"Oslo"},{"latitude":59.873993,"longitude":10.812073,"name":"Lambertseter kino","address":"Cecilie Thoresens vei 23","city":"Oslo"},{"latitude":59.879276,"longitude":10.807235,"name":"Rema 1000 Lambertseter","address":"Cecilie Thoresens vei 1","city":"Oslo"},{"latitude":59.91349,"longitude":10.736338,"name":"Ferner Jacobsen, Stort.gaten","address":"Stortingsgata 14","city":"Oslo"},{"latitude":59.80014,"longitude":10.81511,"name":"Lillestrøm Stasjon","address":"Jonas Lies gate 4","city":"Oslo"},{"latitude":59.91119,"longitude":10.727832,"name":"Rema Strømmen","address":"Støperiveien 5","city":"Oslo"},{"latitude":59.956791,"longitude":11.047722,"name":"Burger King Lillestrøm","address":"Storgata 21, 2000 lillestrøm","city":"Oslo"},{"latitude":59.928062,"longitude":10.957562,"name":"Burger King Lørenskog Metro","address":"Solheimveien 85","city":"Oslo"},{"latitude":59.962147,"longitude":10.924532,"name":"Burger King Stovner","address":"Stovner Senter 3","city":"Oslo"},{"latitude":59.947285,"longitude":11.007331,"name":"Burger King Strømmen","address":"Støperiveien 5, 2010 strømmen","city":"Oslo"},{"latitude":59.944023,"longitude":10.833039,"name":"Bislet Kebab Linderud","address":"Trondheimsveien 320","city":"Oslo"},{"latitude":59.913868,"longitude":10.752245,"name":"Lillestrøm Kino","address":"Brøtergata 4c","city":"Oslo"},{"latitude":59.914223,"longitude":10.748912,"name":"Café Mono ","address":"Pløens gate 4","city":"Oslo"},{"latitude":59.917225,"longitude":10.738965,"name":"Rema 1000 Universitetsgata","address":"Universitetsgata 7","city":"Oslo"},{"latitude":59.833782,"longitude":10.807622,"name":"Bislet Kebab, avd. Prinsdal","address":"Nedre Prinsdals vei 77","city":"Oslo"},{"latitude":59.73954,"longitude":10.770839,"name":"Burger King, Vinterbro","address":"Sjøskogenveien 7, 1407 vinterbro","city":"Oslo"},{"latitude":59.897911,"longitude":10.803025,"name":"Rema 1000 Ryen","address":"Enebakkveien 154B","city":"Oslo"},{"latitude":59.666355,"longitude":10.768007,"name":"Universitetet for miljø og biovitenskap (UMB) - 3 stativ","address":"universitetet for miljø og biovitenskap, 1430 ås","city":"Oslo"},{"latitude":59.889095,"longitude":10.522506,"name":"Sandvika Kino","address":"Claude Monets alle 25, 1338 sandvika","city":"Oslo"},{"latitude":59.892162,"longitude":10.524749,"name":"Sandvika Stasjon","address":"Otto Sverdrups Plass 1,1337 Sandvika","city":"Oslo"},{"latitude":59.892681,"longitude":10.539181,"name":"Burger King Sandvika Storsenter","address":"Sandviksveien 183, 1337 Sandvika","city":"Oslo"},{"latitude":59.914303,"longitude":10.795765,"name":"??Rema 1000 Fyrstikktorget","address":"Karoline Kristiansens Vei 2","city":"Oslo"},{"latitude":59.914528,"longitude":10.788085,"name":"Kiwi Ensjø","address":"Gladengveien 1","city":"Oslo"},{"latitude":59.914333,"longitude":10.774477,"name":"COOP Tøyen","address":"Hagegata 23, 0653","city":"Oslo"},{"latitude":59.923569,"longitude":10.792794,"name":"Ica Hasle","address":"Grenseveien 50","city":"Oslo"},{"latitude":59.906658,"longitude":10.795618,"name":"Rema 1000 Etterstad","address":"Biskop Jens Nilssøns gate 5","city":"Oslo"},{"latitude":59.91317,"longitude":10.638237,"name":"Joker Lysaker Stasjon","address":"Drammensveien 305","city":"Oslo"},{"latitude":59.914036,"longitude":10.756794,"name":"Rema 1000 Christian Kroghs Gate","address":"Christian Krohgs gate 1","city":"Oslo"},{"latitude":59.910488,"longitude":10.764499,"name":"Rema 1000 Trelastgården","address":"Platous gate 31","city":"Oslo"},{"latitude":59.93391,"longitude":10.761284,"name":"Rema 1000 Torshov","address":"Sandakerveien 24","city":"Oslo","url":"http://www.nattogdag.no/byguide/butikker/1824/rema-1000-torshov-1"},{"latitude":59.921211,"longitude":10.677535,"name":"Ica Sjølyst","address":"Karenslyst Allé 58","city":"Oslo","url":"http://www.nattogdag.no/byguide/butikker/1825/ica-sjolyst"}]
